START ITHAKI GPS TRACKING
$GPGGA,103515.000,4037.6180,N,02257.5875,E,2,06,2.1,39.0,M,36.1,M,2.0,0000*49
$GPGGA,103516.000,4037.6180,N,02257.5875,E,2,06,2.1,39.0,M,36.1,M,2.0,0000*4A
$GPGGA,103517.000,4037.6180,N,02257.5874,E,2,06,2.1,39.1,M,36.1,M,2.0,0000*4B
$GPGGA,103518.000,4037.6180,N,02257.5874,E,2,06,2.1,39.1,M,36.1,M,2.0,0000*44
$GPGGA,103519.000,4037.6180,N,02257.5874,E,2,06,2.1,39.2,M,36.1,M,2.0,0000*46
$GPGGA,103520.000,4037.6180,N,02257.5874,E,2,06,2.1,39.2,M,36.1,M,2.0,0000*4C
$GPGGA,103521.000,4037.6180,N,02257.5874,E,2,06,2.1,39.2,M,36.1,M,2.0,0000*4D
$GPGGA,103522.000,4037.6180,N,02257.5873,E,2,06,2.1,39.3,M,36.1,M,3.0,0000*49
$GPGGA,103523.000,4037.6180,N,02257.5873,E,2,06,2.1,39.3,M,36.1,M,2.0,0000*49
$GPGGA,103524.000,4037.6179,N,02257.5873,E,2,06,2.1,39.4,M,36.1,M,2.0,0000*4F
$GPGGA,103525.000,4037.6179,N,02257.5873,E,2,06,2.1,39.4,M,36.1,M,2.0,0000*4E
$GPGGA,103526.000,4037.6179,N,02257.5873,E,2,06,2.1,39.4,M,36.1,M,3.0,0000*4C
$GPGGA,103527.000,4037.6179,N,02257.5872,E,2,06,2.1,39.5,M,36.1,M,4.0,0000*4A
$GPGGA,103528.000,4037.6174,N,02257.5861,E,2,06,2.1,40.6,M,36.1,M,5.0,0000*46
$GPGGA,103529.000,4037.6171,N,02257.5856,E,2,06,2.1,40.8,M,36.1,M,6.0,0000*4B
$GPGGA,103530.000,4037.6168,N,02257.5852,E,2,06,2.1,40.9,M,36.1,M,7.0,0000*4F
$GPGGA,103531.000,4037.6165,N,02257.5848,E,2,06,2.1,41.0,M,36.1,M,8.0,0000*4F
$GPGGA,103532.000,4037.6162,N,02257.5844,E,2,06,2.1,41.1,M,36.1,M,9.0,0000*47
$GPGGA,103533.000,4037.6159,N,02257.5840,E,2,06,2.1,41.3,M,36.1,M,10.0,0000*70
$GPGGA,103534.000,4037.6157,N,02257.5837,E,2,06,2.1,41.3,M,36.1,M,11.0,0000*78
$GPGGA,103535.000,4037.6154,N,02257.5834,E,2,06,2.1,41.5,M,36.1,M,12.0,0000*7C
$GPGGA,103536.000,4037.6152,N,02257.5831,E,2,06,2.1,41.7,M,36.1,M,13.0,0000*7F
$GPGGA,103537.000,4037.6151,N,02257.5830,E,2,06,2.1,41.8,M,36.1,M,14.0,0000*74
$GPGGA,103538.000,4037.6151,N,02257.5831,E,2,06,2.1,41.7,M,36.1,M,15.0,0000*74
$GPGGA,103539.000,4037.6152,N,02257.5830,E,2,06,2.1,41.7,M,36.1,M,16.0,0000*74
$GPGGA,103540.000,4037.6156,N,02257.5830,E,2,06,2.1,41.7,M,36.1,M,17.0,0000*7F
$GPGGA,103541.000,4037.6157,N,02257.5830,E,2,06,2.1,41.4,M,36.1,M,18.0,0000*73
$GPGGA,103542.000,4037.6158,N,02257.5829,E,1,09,1.1,41.1,M,36.1,M,,0000*6A
$GPGGA,103543.000,4037.6156,N,02257.5829,E,1,09,1.1,40.9,M,36.1,M,,0000*6C
$GPGGA,103544.000,4037.6153,N,02257.5828,E,1,09,1.1,40.8,M,36.1,M,,0000*6E
$GPGGA,103545.000,4037.6150,N,02257.5828,E,1,09,1.1,40.8,M,36.1,M,,0000*6C
$GPGGA,103546.000,4037.6150,N,02257.5828,E,1,07,1.3,40.9,M,36.1,M,,0000*62
$GPGGA,103547.000,4037.6153,N,02257.5826,E,1,09,1.1,41.1,M,36.1,M,,0000*6B
$GPGGA,103548.000,4037.6159,N,02257.5819,E,1,09,1.1,41.4,M,36.1,M,,0000*67
$GPGGA,103549.000,4037.6168,N,02257.5807,E,1,09,1.1,41.6,M,36.1,M,,0000*69
$GPGGA,103550.000,4037.6177,N,02257.5794,E,1,09,1.1,41.8,M,36.1,M,,0000*64
$GPGGA,103551.000,4037.6188,N,02257.5782,E,1,09,1.1,42.3,M,36.1,M,,0000*6A
$GPGGA,103552.000,4037.6199,N,02257.5770,E,1,09,1.1,42.6,M,36.1,M,,0000*61
$GPGGA,103553.000,4037.6211,N,02257.5757,E,1,09,1.1,43.0,M,36.1,M,,0000*61
$GPGGA,103554.000,4037.6226,N,02257.5741,E,1,09,1.1,43.7,M,36.1,M,,0000*62
$GPGGA,103555.000,4037.6243,N,02257.5722,E,1,09,1.1,44.5,M,36.1,M,,0000*60
$GPGGA,103556.000,4037.6263,N,02257.5701,E,1,09,1.1,44.6,M,36.1,M,,0000*63
$GPGGA,103557.000,4037.6282,N,02257.5680,E,1,09,1.1,44.8,M,36.1,M,,0000*6B
$GPGGA,103558.000,4037.6301,N,02257.5660,E,1,09,1.1,44.8,M,36.1,M,,0000*60
$GPGGA,103559.000,4037.6319,N,02257.5643,E,1,09,1.1,44.8,M,36.1,M,,0000*69
$GPGGA,103600.000,4037.6335,N,02257.5629,E,1,09,1.1,44.6,M,36.1,M,,0000*6A
$GPGGA,103601.000,4037.6349,N,02257.5616,E,1,09,1.1,44.3,M,36.1,M,,0000*69
$GPGGA,103602.000,4037.6360,N,02257.5603,E,1,09,1.1,44.0,M,36.1,M,,0000*66
$GPGGA,103603.000,4037.6368,N,02257.5585,E,1,09,1.1,43.7,M,36.1,M,,0000*62
$GPGGA,103604.000,4037.6375,N,02257.5563,E,1,09,1.1,43.3,M,36.1,M,,0000*65
$GPGGA,103605.000,4037.6382,N,02257.5541,E,1,09,1.1,43.0,M,36.1,M,,0000*6F
$GPGGA,103606.000,4037.6392,N,02257.5521,E,1,09,1.1,42.7,M,36.1,M,,0000*6D
$GPGGA,103607.000,4037.6405,N,02257.5502,E,1,09,1.1,42.4,M,36.1,M,,0000*67
$GPGGA,103608.000,4037.6418,N,02257.5487,E,1,09,1.1,42.2,M,36.1,M,,0000*6E
$GPGGA,103609.000,4037.6431,N,02257.5474,E,1,09,1.1,42.1,M,36.1,M,,0000*6B
$GPGGA,103610.000,4037.6441,N,02257.5464,E,1,09,1.1,42.0,M,36.1,M,,0000*64
$GPGGA,103611.000,4037.6450,N,02257.5456,E,1,09,1.1,41.9,M,36.1,M,,0000*6E
$GPGGA,103612.000,4037.6456,N,02257.5449,E,1,09,1.1,41.7,M,36.1,M,,0000*6B
$GPGGA,103613.000,4037.6461,N,02257.5444,E,1,09,1.1,41.6,M,36.1,M,,0000*62
$GPGGA,103614.000,4037.6465,N,02257.5440,E,1,09,1.1,41.5,M,36.1,M,,0000*66
$GPGGA,103615.000,4037.6469,N,02257.5436,E,1,09,1.1,41.4,M,36.1,M,,0000*6B
$GPGGA,103616.000,4037.6472,N,02257.5433,E,1,09,1.1,41.3,M,36.1,M,,0000*60
$GPGGA,103617.000,4037.6475,N,02257.5431,E,1,09,1.1,41.2,M,36.1,M,,0000*65
$GPGGA,103618.000,4037.6476,N,02257.5429,E,1,09,1.1,41.1,M,36.1,M,,0000*63
$GPGGA,103619.000,4037.6477,N,02257.5429,E,1,09,1.1,41.1,M,36.1,M,,0000*63
$GPGGA,103620.000,4037.6477,N,02257.5428,E,1,09,1.1,41.0,M,36.1,M,,0000*69
$GPGGA,103621.000,4037.6479,N,02257.5426,E,1,09,1.1,41.0,M,36.1,M,,0000*68
$GPGGA,103622.000,4037.6483,N,02257.5422,E,1,09,1.1,41.0,M,36.1,M,,0000*6A
$GPGGA,103623.000,4037.6488,N,02257.5417,E,1,09,1.1,40.9,M,36.1,M,,0000*6E
$GPGGA,103624.000,4037.6492,N,02257.5411,E,1,09,1.1,40.9,M,36.1,M,,0000*64
$GPGGA,103625.000,4037.6496,N,02257.5406,E,1,09,1.1,40.8,M,36.1,M,,0000*66
$GPGGA,103626.000,4037.6498,N,02257.5400,E,1,09,1.1,40.9,M,36.1,M,,0000*6C
$GPGGA,103627.000,4037.6498,N,02257.5397,E,1,09,1.1,41.1,M,36.1,M,,0000*6D
$GPGGA,103628.000,4037.6498,N,02257.5397,E,1,09,1.1,41.0,M,36.1,M,,0000*63
$GPGGA,103629.000,4037.6498,N,02257.5395,E,1,09,1.1,41.1,M,36.1,M,,0000*61
$GPGGA,103630.000,4037.6498,N,02257.5390,E,1,09,1.1,41.1,M,36.1,M,,0000*6C
$GPGGA,103631.000,4037.6498,N,02257.5385,E,1,09,1.1,41.6,M,36.1,M,,0000*6E
$GPGGA,103632.000,4037.6497,N,02257.5384,E,1,09,1.1,41.8,M,36.1,M,,0000*6D
$GPGGA,103633.000,4037.6497,N,02257.5382,E,1,09,1.1,42.0,M,36.1,M,,0000*61
$GPGGA,103634.000,4037.6496,N,02257.5377,E,1,08,1.1,42.3,M,36.1,M,,0000*6F
$GPGGA,103635.000,4037.6495,N,02257.5372,E,1,09,1.1,42.4,M,36.1,M,,0000*6E
$GPGGA,103636.000,4037.6492,N,02257.5364,E,1,09,1.1,42.6,M,36.1,M,,0000*6F
$GPGGA,103637.000,4037.6489,N,02257.5353,E,1,09,1.1,42.5,M,36.1,M,,0000*63
$GPGGA,103638.000,4037.6486,N,02257.5340,E,1,09,1.1,42.2,M,36.1,M,,0000*66
$GPGGA,103639.000,4037.6484,N,02257.5329,E,1,09,1.1,42.2,M,36.1,M,,0000*6A
$GPGGA,103640.000,4037.6483,N,02257.5320,E,1,09,1.1,42.4,M,36.1,M,,0000*6C
$GPGGA,103641.000,4037.6482,N,02257.5316,E,1,09,1.1,42.4,M,36.1,M,,0000*69
$GPGGA,103642.000,4037.6482,N,02257.5316,E,1,09,1.1,42.4,M,36.1,M,,0000*6A
$GPGGA,103643.000,4037.6482,N,02257.5316,E,1,09,1.1,42.4,M,36.1,M,,0000*6B
$GPGGA,103644.000,4037.6482,N,02257.5316,E,1,09,1.1,42.4,M,36.1,M,,0000*6C
$GPGGA,103645.000,4037.6482,N,02257.5316,E,1,09,1.1,42.4,M,36.1,M,,0000*6D
$GPGGA,103646.000,4037.6482,N,02257.5316,E,1,09,1.1,42.4,M,36.1,M,,0000*6E
$GPGGA,103647.000,4037.6482,N,02257.5316,E,1,09,1.1,42.4,M,36.1,M,,0000*6F
$GPGGA,103648.000,4037.6482,N,02257.5316,E,1,09,1.1,42.4,M,36.1,M,,0000*60
$GPGGA,103649.000,4037.6482,N,02257.5314,E,1,09,1.1,42.2,M,36.1,M,,0000*65
$GPGGA,103650.000,4037.6482,N,02257.5310,E,1,09,1.1,42.1,M,36.1,M,,0000*6A
$GPGGA,103651.000,4037.6482,N,02257.5301,E,1,09,1.1,42.1,M,36.1,M,,0000*6B
$GPGGA,103652.000,4037.6485,N,02257.5286,E,1,09,1.1,42.0,M,36.1,M,,0000*60
$GPGGA,103653.000,4037.6495,N,02257.5267,E,1,09,1.1,41.9,M,36.1,M,,0000*65
STOP ITHAKI GPS TRACKING
START ITHAKI GPS TRACKING
$GPGGA,103705.000,4037.6878,N,02257.4824,E,2,07,1.6,41.1,M,36.1,M,2.0,0000*4A
$GPGGA,103706.000,4037.6921,N,02257.4777,E,2,07,1.6,41.1,M,36.1,M,2.0,0000*4D
$GPGGA,103707.000,4037.6964,N,02257.4732,E,2,07,1.6,40.9,M,36.1,M,2.0,0000*45
$GPGGA,103708.000,4037.7006,N,02257.4687,E,2,07,1.6,40.7,M,36.1,M,2.0,0000*47
$GPGGA,103709.000,4037.7046,N,02257.4643,E,2,07,1.6,40.5,M,36.1,M,2.0,0000*48
$GPGGA,103710.000,4037.7083,N,02257.4602,E,2,07,1.6,40.2,M,36.1,M,2.0,0000*4B
$GPGGA,103711.000,4037.7117,N,02257.4566,E,2,07,1.6,39.9,M,36.1,M,3.0,0000*43
$GPGGA,103712.000,4037.7143,N,02257.4540,E,2,07,1.6,39.7,M,36.1,M,2.0,0000*4A
$GPGGA,103713.000,4037.7163,N,02257.4526,E,2,07,1.6,39.5,M,36.1,M,2.0,0000*4B
$GPGGA,103714.000,4037.7180,N,02257.4522,E,2,07,1.6,39.4,M,36.1,M,2.0,0000*44
$GPGGA,103715.000,4037.7196,N,02257.4527,E,2,07,1.6,39.4,M,36.1,M,3.0,0000*46
$GPGGA,103716.000,4037.7212,N,02257.4543,E,2,07,1.6,39.4,M,36.1,M,4.0,0000*4F
$GPGGA,103717.000,4037.7227,N,02257.4566,E,2,07,1.6,39.5,M,36.1,M,5.0,0000*4F
$GPGGA,103718.000,4037.7244,N,02257.4596,E,2,07,1.6,39.4,M,36.1,M,6.0,0000*48
$GPGGA,103719.000,4037.7263,N,02257.4629,E,2,07,1.6,39.5,M,36.1,M,7.0,0000*4B
$GPGGA,103720.000,4037.7281,N,02257.4662,E,2,07,1.6,39.4,M,36.1,M,8.0,0000*4C
$GPGGA,103721.000,4037.7302,N,02257.4694,E,2,07,1.6,39.4,M,36.1,M,9.0,0000*4F
$GPGGA,103722.000,4037.7328,N,02257.4726,E,2,07,1.6,39.6,M,36.1,M,10.0,0000*76
$GPGGA,103723.000,4037.7357,N,02257.4758,E,2,07,1.6,39.8,M,36.1,M,11.0,0000*79
$GPGGA,103724.000,4037.7389,N,02257.4790,E,2,07,1.6,40.0,M,36.1,M,12.0,0000*7C
$GPGGA,103725.000,4037.7420,N,02257.4822,E,2,07,1.6,40.2,M,36.1,M,13.0,0000*7C
$GPGGA,103726.000,4037.7451,N,02257.4852,E,2,07,1.6,40.4,M,36.1,M,14.0,0000*7F
$GPGGA,103727.000,4037.7482,N,02257.4881,E,2,07,1.6,40.7,M,36.1,M,15.0,0000*7C
$GPGGA,103728.000,4037.7516,N,02257.4908,E,2,07,1.6,41.0,M,36.1,M,16.0,0000*7A
$GPGGA,103729.000,4037.7548,N,02257.4937,E,2,07,1.6,41.3,M,36.1,M,17.0,0000*7E
$GPGGA,103730.000,4037.7576,N,02257.4973,E,2,07,1.6,41.6,M,36.1,M,18.0,0000*71
$GPGGA,103731.000,4037.7603,N,02257.5014,E,1,09,1.1,42.3,M,36.1,M,,0000*63
$GPGGA,103732.000,4037.7630,N,02257.5058,E,1,09,1.1,42.8,M,36.1,M,,0000*63
$GPGGA,103733.000,4037.7658,N,02257.5101,E,1,09,1.1,43.4,M,36.1,M,,0000*6C
$GPGGA,103734.000,4037.7685,N,02257.5142,E,1,09,1.1,43.9,M,36.1,M,,0000*61
$GPGGA,103735.000,4037.7711,N,02257.5181,E,1,09,1.1,44.6,M,36.1,M,,0000*6B
$GPGGA,103736.000,4037.7736,N,02257.5220,E,1,09,1.1,45.1,M,36.1,M,,0000*63
$GPGGA,103737.000,4037.7759,N,02257.5258,E,1,09,1.1,45.7,M,36.1,M,,0000*62
$GPGGA,103738.000,4037.7781,N,02257.5291,E,1,09,1.1,45.9,M,36.1,M,,0000*63
$GPGGA,103739.000,4037.7798,N,02257.5322,E,1,09,1.1,46.2,M,36.1,M,,0000*6B
$GPGGA,103740.000,4037.7810,N,02257.5347,E,1,09,1.1,46.5,M,36.1,M,,0000*6E
$GPGGA,103741.000,4037.7817,N,02257.5365,E,1,09,1.1,46.8,M,36.1,M,,0000*65
$GPGGA,103742.000,4037.7818,N,02257.5378,E,1,09,1.1,47.5,M,36.1,M,,0000*69
$GPGGA,103743.000,4037.7814,N,02257.5390,E,1,09,1.1,48.1,M,36.1,M,,0000*69
$GPGGA,103744.000,4037.7807,N,02257.5401,E,1,09,1.1,48.3,M,36.1,M,,0000*61
$GPGGA,103745.000,4037.7796,N,02257.5410,E,1,09,1.1,48.3,M,36.1,M,,0000*67
$GPGGA,103746.000,4037.7782,N,02257.5418,E,1,09,1.1,48.4,M,36.1,M,,0000*6E
$GPGGA,103747.000,4037.7765,N,02257.5428,E,1,09,1.1,48.2,M,36.1,M,,0000*63
$GPGGA,103748.000,4037.7745,N,02257.5440,E,1,09,1.1,48.4,M,36.1,M,,0000*66
$GPGGA,103749.000,4037.7724,N,02257.5452,E,1,09,1.1,48.5,M,36.1,M,,0000*62
$GPGGA,103750.000,4037.7705,N,02257.5465,E,1,08,1.1,48.6,M,36.1,M,,0000*6F
$GPGGA,103751.000,4037.7686,N,02257.5477,E,1,09,1.1,49.1,M,36.1,M,,0000*60
$GPGGA,103752.000,4037.7667,N,02257.5489,E,1,09,1.1,49.3,M,36.1,M,,0000*6F
$GPGGA,103753.000,4037.7648,N,02257.5502,E,1,09,1.1,49.5,M,36.1,M,,0000*67
$GPGGA,103754.000,4037.7628,N,02257.5515,E,1,09,1.1,49.8,M,36.1,M,,0000*6D
$GPGGA,103755.000,4037.7609,N,02257.5529,E,1,09,1.1,50.0,M,36.1,M,,0000*60
$GPGGA,103756.000,4037.7590,N,02257.5541,E,1,09,1.1,50.0,M,36.1,M,,0000*6E
$GPGGA,103757.000,4037.7572,N,02257.5555,E,1,09,1.1,50.3,M,36.1,M,,0000*65
$GPGGA,103758.000,4037.7554,N,02257.5568,E,1,09,1.1,50.4,M,36.1,M,,0000*67
$GPGGA,103759.000,4037.7535,N,02257.5580,E,1,09,1.1,50.3,M,36.1,M,,0000*60
$GPGGA,103800.000,4037.7519,N,02257.5590,E,1,09,1.1,50.4,M,36.1,M,,0000*6B
$GPGGA,103801.000,4037.7506,N,02257.5599,E,1,09,1.1,50.4,M,36.1,M,,0000*6D
$GPGGA,103802.000,4037.7495,N,02257.5606,E,1,09,1.1,50.5,M,36.1,M,,0000*61
$GPGGA,103803.000,4037.7486,N,02257.5611,E,1,09,1.1,50.6,M,36.1,M,,0000*67
$GPGGA,103804.000,4037.7482,N,02257.5614,E,1,09,1.1,50.7,M,36.1,M,,0000*60
$GPGGA,103805.000,4037.7480,N,02257.5615,E,1,09,1.1,50.8,M,36.1,M,,0000*6D
$GPGGA,103806.000,4037.7479,N,02257.5615,E,1,09,1.1,50.7,M,36.1,M,,0000*67
$GPGGA,103807.000,4037.7479,N,02257.5615,E,1,09,1.1,50.7,M,36.1,M,,0000*66
$GPGGA,103808.000,4037.7479,N,02257.5615,E,1,09,1.1,50.7,M,36.1,M,,0000*69
$GPGGA,103809.000,4037.7477,N,02257.5616,E,1,09,1.1,50.7,M,36.1,M,,0000*65
$GPGGA,103810.000,4037.7475,N,02257.5617,E,1,09,1.1,50.8,M,36.1,M,,0000*61
$GPGGA,103811.000,4037.7474,N,02257.5618,E,1,09,1.1,50.7,M,36.1,M,,0000*61
$GPGGA,103812.000,4037.7470,N,02257.5620,E,1,09,1.1,50.8,M,36.1,M,,0000*62
$GPGGA,103813.000,4037.7459,N,02257.5627,E,1,09,1.1,50.8,M,36.1,M,,0000*6F
$GPGGA,103814.000,4037.7442,N,02257.5637,E,1,09,1.1,50.8,M,36.1,M,,0000*63
$GPGGA,103815.000,4037.7422,N,02257.5650,E,1,08,1.3,50.9,M,36.1,M,,0000*67
$GPGGA,103816.000,4037.7400,N,02257.5664,E,1,08,1.3,50.9,M,36.1,M,,0000*63
$GPGGA,103817.000,4037.7374,N,02257.5682,E,1,08,1.3,50.9,M,36.1,M,,0000*6E
$GPGGA,103818.000,4037.7346,N,02257.5704,E,1,08,1.3,51.1,M,36.1,M,,0000*66
$GPGGA,103819.000,4037.7320,N,02257.5729,E,1,08,1.3,51.3,M,36.1,M,,0000*6A
$GPGGA,103820.000,4037.7296,N,02257.5753,E,1,08,1.3,51.3,M,36.1,M,,0000*61
$GPGGA,103821.000,4037.7278,N,02257.5773,E,1,08,1.3,51.2,M,36.1,M,,0000*63
$GPGGA,103822.000,4037.7266,N,02257.5786,E,1,09,1.1,51.2,M,36.1,M,,0000*66
$GPGGA,103823.000,4037.7260,N,02257.5793,E,1,09,1.1,51.2,M,36.1,M,,0000*65
$GPGGA,103824.000,4037.7256,N,02257.5797,E,1,09,1.1,51.2,M,36.1,M,,0000*63
$GPGGA,103825.000,4037.7253,N,02257.5800,E,1,09,1.1,50.8,M,36.1,M,,0000*6D
$GPGGA,103826.000,4037.7248,N,02257.5808,E,1,09,1.1,50.6,M,36.1,M,,0000*62
$GPGGA,103827.000,4037.7237,N,02257.5823,E,1,09,1.1,50.4,M,36.1,M,,0000*60
$GPGGA,103828.000,4037.7223,N,02257.5842,E,1,09,1.1,50.2,M,36.1,M,,0000*6B
$GPGGA,103829.000,4037.7207,N,02257.5863,E,1,09,1.1,50.0,M,36.1,M,,0000*6D
$GPGGA,103830.000,4037.7190,N,02257.5886,E,1,09,1.1,49.8,M,36.1,M,,0000*63
$GPGGA,103831.000,4037.7174,N,02257.5908,E,1,09,1.1,49.6,M,36.1,M,,0000*61
$GPGGA,103832.000,4037.7160,N,02257.5927,E,1,09,1.1,49.4,M,36.1,M,,0000*68
$GPGGA,103833.000,4037.7152,N,02257.5939,E,1,09,1.1,49.2,M,36.1,M,,0000*61
$GPGGA,103834.000,4037.7148,N,02257.5946,E,1,09,1.1,49.0,M,36.1,M,,0000*67
$GPGGA,103835.000,4037.7142,N,02257.5955,E,1,09,1.1,48.9,M,36.1,M,,0000*66
$GPGGA,103836.000,4037.7134,N,02257.5969,E,1,09,1.1,48.9,M,36.1,M,,0000*6B
$GPGGA,103837.000,4037.7122,N,02257.5989,E,1,09,1.1,48.9,M,36.1,M,,0000*63
$GPGGA,103838.000,4037.7109,N,02257.6012,E,1,09,1.1,48.9,M,36.1,M,,0000*6D
$GPGGA,103839.000,4037.7096,N,02257.6038,E,1,09,1.1,48.9,M,36.1,M,,0000*63
$GPGGA,103840.000,4037.7081,N,02257.6071,E,1,09,1.1,48.9,M,36.1,M,,0000*66
$GPGGA,103841.000,4037.7065,N,02257.6113,E,1,09,1.1,49.0,M,36.1,M,,0000*60
$GPGGA,103842.000,4037.7049,N,02257.6162,E,1,09,1.1,49.2,M,36.1,M,,0000*69
$GPGGA,103843.000,4037.7035,N,02257.6214,E,1,09,1.1,49.4,M,36.1,M,,0000*67
STOP ITHAKI GPS TRACKING

